[
  {"iata":"MAA","name":"Chennai International Airport","city":"Chennai","state":"Tamil Nadu","country":"IN","lat":12.9900,"lon":80.1693,"address":"Chennai, Tamil Nadu 600027","phone":"+91-44-2256-0551","hours":"24 Hours"},
  {"iata":"BLR","name":"Kempegowda International Airport","city":"Bengaluru","state":"Karnataka","country":"IN","lat":13.1979,"lon":77.7063,"address":"Devanahalli, Bengaluru, Karnataka 562300","phone":"+91-80-6678-2000","hours":"24 Hours"},
  {"iata":"HYD","name":"Rajiv Gandhi International Airport","city":"Hyderabad","state":"Telangana","country":"IN","lat":17.2403,"lon":78.4294,"address":"Shamshabad, Hyderabad, Telangana 500409","phone":"+91-40-6654-3000","hours":"24 Hours"},
  {"iata":"COK","name":"Cochin International Airport","city":"Kochi","state":"Kerala","country":"IN","lat":10.1520,"lon":76.3919,"address":"Nedumbassery, Ernakulam, Kerala 683111","phone":"+91-484-2610-115","hours":"24 Hours"},
  {"iata":"TRV","name":"Trivandrum International Airport","city":"Thiruvananthapuram","state":"Kerala","country":"IN","lat":8.4821,"lon":76.9201,"address":"Palayam, Thiruvananthapuram, Kerala 695008","phone":"+91-471-250-1137","hours":"24 Hours"},
  {"iata":"IXM","name":"Madurai Airport","city":"Madurai","state":"Tamil Nadu","country":"IN","lat":9.8345,"lon":78.0934,"address":"Avaniyapuram, Madurai, Tamil Nadu 625016","phone":"+91-452-269-0433","hours":"05:00 - 23:00"},
  {"iata":"TRZ","name":"Tiruchirappalli International Airport","city":"Trichy","state":"Tamil Nadu","country":"IN","lat":10.7654,"lon":78.7097,"address":"Tiruchirapalli, Tamil Nadu 620007","phone":"+91-431-234-3833","hours":"24 Hours"},
  {"iata":"CCJ","name":"Calicut International Airport","city":"Kozhikode","state":"Kerala","country":"IN","lat":11.1368,"lon":75.9553,"address":"Karipur, Kozhikode, Kerala 673647","phone":"+91-483-271-2930","hours":"24 Hours"},
  {"iata":"CNN","name":"Kannur International Airport","city":"Kannur","state":"Kerala","country":"IN","lat":11.9186,"lon":75.5501,"address":"Mattannur, Kannur, Kerala 670702","phone":"+91-497-286-8800","hours":"24 Hours"},
  {"iata":"STV","name":"Surat Airport","city":"Surat","state":"Gujarat","country":"IN","lat":21.1141,"lon":72.7418,"address":"Magdalla, Surat, Gujarat 395007","phone":"+91-261-267-0101","hours":"06:00 - 23:00"},
  {"iata":"VNS","name":"Lal Bahadur Shastri Airport","city":"Varanasi","state":"Uttar Pradesh","country":"IN","lat":25.4524,"lon":82.8593,"address":"Babatpur, Varanasi, Uttar Pradesh 221206","phone":"+91-542-262-2519","hours":"05:00 - 22:00"},
  {"iata":"IXB","name":"Bagdogra Airport","city":"Siliguri","state":"West Bengal","country":"IN","lat":26.6812,"lon":88.3286,"address":"Bagdogra, Darjeeling, West Bengal 734422","phone":"+91-353-259-8120","hours":"05:00 - 20:00"},
  {"iata":"GAU","name":"Lokpriya Gopinath Bordoloi International Airport","city":"Guwahati","state":"Assam","country":"IN","lat":26.1061,"lon":91.5859,"address":"Borjhar, Guwahati, Assam 781015","phone":"+91-361-284-0007","hours":"24 Hours"},
  {"iata":"DEL","name":"Indira Gandhi International Airport","city":"New Delhi","state":"Delhi","country":"IN","lat":28.5562,"lon":77.1000,"address":"NH-8, New Delhi, Delhi 110037","phone":"+91-11-2337-6000","hours":"24 Hours"},
  {"iata":"BOM","name":"Chhatrapati Shivaji Maharaj International Airport","city":"Mumbai","state":"Maharashtra","country":"IN","lat":19.0896,"lon":72.8656,"address":"Andheri East, Mumbai, Maharashtra 400099","phone":"+91-22-6685-1010","hours":"24 Hours"},
  {"iata":"CCU","name":"Netaji Subhas Chandra Bose International Airport","city":"Kolkata","state":"West Bengal","country":"IN","lat":22.6549,"lon":88.4467,"address":"Dum Dum, Kolkata, West Bengal 700052","phone":"+91-33-2511-8036","hours":"24 Hours"},
  {"iata":"AMD","name":"Sardar Vallabhbhai Patel International Airport","city":"Ahmedabad","state":"Gujarat","country":"IN","lat":23.0773,"lon":72.6347,"address":"Hansol, Ahmedabad, Gujarat 382475","phone":"+91-79-2286-4323","hours":"24 Hours"},
  {"iata":"PNQ","name":"Pune Airport","city":"Pune","state":"Maharashtra","country":"IN","lat":18.5822,"lon":73.9197,"address":"Lohegaon, Pune, Maharashtra 411032","phone":"+91-20-2668-1500","hours":"24 Hours"},
  {"iata":"GOI","name":"Goa International Airport","city":"Goa","state":"Goa","country":"IN","lat":15.3808,"lon":73.8314,"address":"Dabolim, Vasco da Gama, Goa 403801","phone":"+91-832-251-0612","hours":"24 Hours"},
  {"iata":"JAI","name":"Jaipur International Airport","city":"Jaipur","state":"Rajasthan","country":"IN","lat":26.8242,"lon":75.8122,"address":"Sanganer, Jaipur, Rajasthan 302029","phone":"+91-141-255-0623","hours":"24 Hours"},
  {"iata":"LKO","name":"Chaudhary Charan Singh International Airport","city":"Lucknow","state":"Uttar Pradesh","country":"IN","lat":26.7606,"lon":80.8893,"address":"Amausi, Lucknow, Uttar Pradesh 226009","phone":"+91-522-243-2360","hours":"24 Hours"},
  {"iata":"BHO","name":"Raja Bhoj Airport","city":"Bhopal","state":"Madhya Pradesh","country":"IN","lat":23.2875,"lon":77.3374,"address":"Bairagarh, Bhopal, Madhya Pradesh 462036","phone":"+91-755-276-2990","hours":"05:00 - 22:00"},
  {"iata":"PAT","name":"Lok Nayak Jayaprakash Airport","city":"Patna","state":"Bihar","country":"IN","lat":25.5913,"lon":85.0880,"address":"Patna, Bihar 800014","phone":"+91-612-222-3327","hours":"05:00 - 22:00"},
  {"iata":"NAG","name":"Dr. Babasaheb Ambedkar International Airport","city":"Nagpur","state":"Maharashtra","country":"IN","lat":21.0922,"lon":79.0472,"address":"Sonegaon, Nagpur, Maharashtra 440005","phone":"+91-712-262-2011","hours":"24 Hours"},
  {"iata":"IDR","name":"Devi Ahilyabai Holkar Airport","city":"Indore","state":"Madhya Pradesh","country":"IN","lat":22.7218,"lon":75.8011,"address":"Indore, Madhya Pradesh 453771","phone":"+91-731-271-3400","hours":"05:00 - 23:00"},
  {"iata":"ATQ","name":"Sri Guru Ram Dass Jee International Airport","city":"Amritsar","state":"Punjab","country":"IN","lat":31.7096,"lon":74.7973,"address":"Ajnala Road, Amritsar, Punjab 143001","phone":"+91-183-259-2272","hours":"24 Hours"},
  {"iata":"IXC","name":"Shaheed Bhagat Singh International Airport","city":"Chandigarh","state":"Punjab","country":"IN","lat":30.6735,"lon":76.7885,"address":"Sector 25, Chandigarh 160025","phone":"+91-172-264-0830","hours":"05:00 - 23:00"},
  {"iata":"SHL","name":"Shillong Airport","city":"Shillong","state":"Meghalaya","country":"IN","lat":25.7036,"lon":91.9787,"address":"Umroi, Shillong, Meghalaya 793101","phone":"+91-364-254-2640","hours":"06:00 - 18:00"},
  {"iata":"IMP","name":"Imphal Airport","city":"Imphal","state":"Manipur","country":"IN","lat":24.7600,"lon":93.8967,"address":"Imphal, Manipur 795001","phone":"+91-385-245-2360","hours":"06:00 - 19:00"},
  {"iata":"DIU","name":"Diu Airport","city":"Diu","state":"Daman and Diu","country":"IN","lat":20.7131,"lon":70.9211,"address":"Diu 362520","phone":"+91-2875-252-228","hours":"06:00 - 18:00"},
  {"iata":"BBI","name":"Biju Patnaik International Airport","city":"Bhubaneswar","state":"Odisha","country":"IN","lat":20.2444,"lon":85.8178,"address":"Bhubaneswar, Odisha 751020","phone":"+91-674-253-1765","hours":"24 Hours"},
  {"iata":"RPR","name":"Swami Vivekananda Airport","city":"Raipur","state":"Chhattisgarh","country":"IN","lat":21.1804,"lon":81.7388,"address":"Mana, Raipur, Chhattisgarh 492015","phone":"+91-771-229-4140","hours":"05:00 - 23:00"},
  {"iata":"RDP","name":"Kazi Nazrul Islam Airport","city":"Andal","state":"West Bengal","country":"IN","lat":23.6228,"lon":87.2429,"address":"Andal, Durgapur, West Bengal 713321","phone":"+91-341-254-3870","hours":"06:00 - 21:00"},
  {"iata":"VTZ","name":"Visakhapatnam Airport","city":"Visakhapatnam","state":"Andhra Pradesh","country":"IN","lat":17.7212,"lon":83.2245,"address":"Waltair Uplands, Visakhapatnam, Andhra Pradesh 530003","phone":"+91-891-271-4646","hours":"05:00 - 23:00"},
  {"iata":"VGA","name":"Vijayawada Airport","city":"Vijayawada","state":"Andhra Pradesh","country":"IN","lat":16.5304,"lon":80.7968,"address":"Gannavaram, Krishna, Andhra Pradesh 521101","phone":"+91-866-289-3812","hours":"05:00 - 22:00"},
  {"iata":"IXZ","name":"Veer Savarkar International Airport","city":"Port Blair","state":"Andaman and Nicobar Islands","country":"IN","lat":11.6412,"lon":92.7297,"address":"Port Blair, Andaman 744101","phone":"+91-3192-232-108","hours":"05:00 - 21:00"},
  {"iata":"TIR","name":"Tirupati Airport","city":"Tirupati","state":"Andhra Pradesh","country":"IN","lat":13.6325,"lon":79.5432,"address":"Renigunta, Tirupati, Andhra Pradesh 517520","phone":"+91-877-225-6140","hours":"05:00 - 23:00"},
  {"iata":"SXR","name":"Sheikh ul-Alam International Airport","city":"Srinagar","state":"Jammu and Kashmir","country":"IN","lat":33.9871,"lon":74.7742,"address":"Srinagar, Jammu and Kashmir 190007","phone":"+91-194-243-0700","hours":"24 Hours"},
  {"iata":"IXD","name":"Allahabad Airport","city":"Prayagraj","state":"Uttar Pradesh","country":"IN","lat":25.4401,"lon":81.7339,"address":"Bamrauli, Prayagraj, Uttar Pradesh 211012","phone":"+91-532-261-4012","hours":"05:00 - 21:00"},
  {"iata":"KNU","name":"Kanpur Airport","city":"Kanpur","state":"Uttar Pradesh","country":"IN","lat":26.4044,"lon":80.4109,"address":"Chakeri, Kanpur, Uttar Pradesh 208008","phone":"+91-512-234-1150","hours":"05:00 - 20:00"},
  {"iata":"AGR","name":"Agra Airport","city":"Agra","state":"Uttar Pradesh","country":"IN","lat":27.1558,"lon":77.9609,"address":"Kheria, Agra, Uttar Pradesh 282006","phone":"+91-562-240-4046","hours":"06:00 - 21:00"},
  {"iata":"UDR","name":"Maharana Pratap Airport","city":"Udaipur","state":"Rajasthan","country":"IN","lat":24.6177,"lon":73.8961,"address":"Debari, Udaipur, Rajasthan 313001","phone":"+91-294-265-5453","hours":"06:00 - 21:00"},
  {"iata":"JDH","name":"Jodhpur Airport","city":"Jodhpur","state":"Rajasthan","country":"IN","lat":26.2511,"lon":73.0489,"address":"Jodhpur, Rajasthan 342005","phone":"+91-291-251-2834","hours":"05:00 - 22:00"},
  {"iata":"BDQ","name":"Vadodara Airport","city":"Vadodara","state":"Gujarat","country":"IN","lat":22.3362,"lon":73.2263,"address":"Harni, Vadodara, Gujarat 390022","phone":"+91-265-229-0003","hours":"05:00 - 22:00"},
  {"iata":"RAJ","name":"Rajkot Airport","city":"Rajkot","state":"Gujarat","country":"IN","lat":22.3092,"lon":70.7795,"address":"Rajkot, Gujarat 360005","phone":"+91-281-272-5005","hours":"05:00 - 21:00"},
  {"iata":"BHJ","name":"Bhuj Airport","city":"Bhuj","state":"Gujarat","country":"IN","lat":23.2877,"lon":69.6701,"address":"Rudramata, Bhuj, Gujarat 370001","phone":"+91-2832-250-023","hours":"06:00 - 19:00"},
  {"iata":"PBH","name":"Paro International Airport","city":"Paro","state":"Bhutan","country":"BT","lat":27.4032,"lon":89.4246,"address":"Paro, Bhutan","phone":"+975-8-271-228","hours":"06:00 - 18:00"},
  {"iata":"MYQ","name":"Mysore Airport","city":"Mysuru","state":"Karnataka","country":"IN","lat":12.2310,"lon":76.6497,"address":"Mandakalli, Mysuru, Karnataka 570027","phone":"+91-821-248-8240","hours":"06:00 - 20:00"},
  {"iata":"HBX","name":"Hubli Airport","city":"Hubballi","state":"Karnataka","country":"IN","lat":15.3617,"lon":75.0849,"address":"Gokul, Hubballi, Karnataka 580028","phone":"+91-836-235-1108","hours":"06:00 - 20:00"},
  {"iata":"IXE","name":"Mangaluru International Airport","city":"Mangaluru","state":"Karnataka","country":"IN","lat":12.9613,"lon":74.8901,"address":"Bajpe, Mangaluru, Karnataka 574142","phone":"+91-824-225-4253","hours":"24 Hours"},
  {"iata":"BEP","name":"Bellary Airport","city":"Bellary","state":"Karnataka","country":"IN","lat":15.1628,"lon":76.8828,"address":"Toranagallu, Bellary, Karnataka 583123","phone":"+91-8395-250-100","hours":"06:00 - 19:00"},
  {"iata":"DED","name":"Jolly Grant Airport","city":"Dehradun","state":"Uttarakhand","country":"IN","lat":30.1897,"lon":78.1803,"address":"Jolly Grant, Dehradun, Uttarakhand 249205","phone":"+91-135-264-7000","hours":"06:00 - 21:00"},
  {"iata":"IXL","name":"Kushok Bakula Rimpochhe Airport","city":"Leh","state":"Ladakh","country":"IN","lat":34.1359,"lon":77.5465,"address":"Leh, Ladakh 194101","phone":"+91-1982-252-023","hours":"06:00 - 20:00"},
  {"iata":"IXJ","name":"Jammu Airport","city":"Jammu","state":"Jammu and Kashmir","country":"IN","lat":32.6891,"lon":74.8374,"address":"Satwari, Jammu, Jammu and Kashmir 180001","phone":"+91-191-245-3700","hours":"05:00 - 21:00"},
  {"iata":"DHM","name":"Gaggal Airport","city":"Dharamsala","state":"Himachal Pradesh","country":"IN","lat":32.1651,"lon":76.2634,"address":"Gaggal, Kangra, Himachal Pradesh 176054","phone":"+91-1892-230-081","hours":"06:00 - 19:00"},
  {"iata":"KUU","name":"Bhuntar Airport","city":"Kullu","state":"Himachal Pradesh","country":"IN","lat":31.8767,"lon":77.1544,"address":"Bhuntar, Kullu, Himachal Pradesh 175125","phone":"+91-1902-265-106","hours":"07:00 - 18:00"},
  {"iata":"IXR","name":"Birsa Munda Airport","city":"Ranchi","state":"Jharkhand","country":"IN","lat":23.3143,"lon":85.3217,"address":"Hinoo, Ranchi, Jharkhand 834002","phone":"+91-651-245-1099","hours":"05:00 - 22:00"},
  {"iata":"IXA","name":"Agartala Airport","city":"Agartala","state":"Tripura","country":"IN","lat":23.8870,"lon":91.2404,"address":"Singerbhil, Agartala, Tripura 799009","phone":"+91-381-234-1622","hours":"06:00 - 19:00"},
  {"iata":"DIB","name":"Dibrugarh Airport","city":"Dibrugarh","state":"Assam","country":"IN","lat":27.4839,"lon":95.0169,"address":"Mohanbari, Dibrugarh, Assam 786012","phone":"+91-373-232-3101","hours":"06:00 - 18:00"},
  {"iata":"JRH","name":"Jorhat Airport","city":"Jorhat","state":"Assam","country":"IN","lat":26.7315,"lon":94.1754,"address":"Rowriah, Jorhat, Assam 785006","phone":"+91-376-230-1046","hours":"06:00 - 18:00"},
  {"iata":"MZU","name":"Muzaffarpur Airport","city":"Muzaffarpur","state":"Bihar","country":"IN","lat":26.1191,"lon":85.3130,"address":"Punaichak, Muzaffarpur, Bihar 842002","phone":"+91-621-226-4000","hours":"06:00 - 18:00"},
  {"iata":"GAY","name":"Gaya Airport","city":"Gaya","state":"Bihar","country":"IN","lat":24.7443,"lon":84.9512,"address":"Bodhgaya, Gaya, Bihar 824234","phone":"+91-631-222-0551","hours":"05:00 - 21:00"},
  {"iata":"BHU","name":"Bhavnagar Airport","city":"Bhavnagar","state":"Gujarat","country":"IN","lat":21.7522,"lon":72.1852,"address":"Bhavnagar, Gujarat 364001","phone":"+91-278-242-0133","hours":"06:00 - 19:00"},
  {"iata":"JGA","name":"Jamnagar Airport","city":"Jamnagar","state":"Gujarat","country":"IN","lat":22.4655,"lon":70.0126,"address":"Govardhanpur, Jamnagar, Gujarat 361006","phone":"+91-288-267-1021","hours":"06:00 - 20:00"},
  {"iata":"IXS","name":"Silchar Airport","city":"Silchar","state":"Assam","country":"IN","lat":24.9129,"lon":92.9787,"address":"Kumbhirgram, Silchar, Assam 788119","phone":"+91-384-226-0680","hours":"06:00 - 18:00"},
  {"iata":"CDP","name":"Cuddapah Airport","city":"Kadapa","state":"Andhra Pradesh","country":"IN","lat":14.5100,"lon":78.7728,"address":"Cuddapah, Andhra Pradesh 516001","phone":"+91-8562-241-480","hours":"06:00 - 18:00"}
]
